[
  {
    "id": 1,
    "active": false,
    "name": "string",
    "qualification": [
      "bachelors"
    ],
    "speciality": [
      "Orthology"
    ],
    "phone": {
      "country_code": "+91",
      "number": "9191919191"
    },
    "department": "IT",
    "organisation": {
      "name": "string",
      "location": "string"
    },
    "address": {
      "street_address": "string",
      "city": "New Delhi",
      "state": "Delhi",
      "country": "India",
      "zip_code": "111111"
    }
  },
  {
    "id": 2,
    "active": false,
    "name": "string",
    "qualification": [
      "bachelors"
    ],
    "speciality": [
      "Orthology",
      "Zoology"
    ],
    "phone": {
      "country_code": "+91",
      "number": "12121212"
    },
    "department": "IT",
    "organisation": {
      "name": "string",
      "location": "string"
    },
    "address": {
      "street_address": "string",
      "city": "New Delhi",
      "state": "Delhi",
      "country": "India",
      "zip_code": "110052"
    }
  },
  {
    "id": 4,
    "active": true,
    "name": "string",
    "qualification": [
      "bachelors"
    ],
    "speciality": [
      "Orthology"
    ],
    "phone": {
      "country_code": "+91",
      "number": "12121212"
    },
    "department": "IT",
    "organisation": {
      "name": "string",
      "location": "string"
    },
    "address": {
      "street_address": "string",
      "city": "New Delhi",
      "state": "Delhi",
      "country": "India",
      "zip_code": "110052"
    }
  },
  {
    "id": 5,
    "active": true,
    "name": "string",
    "qualification": [
      "bachelors"
    ],
    "speciality": [
      "Orthology",
      "Dentist"
    ],
    "phone": {
      "country_code": "+91",
      "number": "99991111"
    },
    "department": "IT",
    "organisation": {
      "name": "string",
      "location": "string"
    },
    "address": {
      "street_address": "string",
      "city": "New Delhi",
      "state": "Delhi",
      "country": "India",
      "zip_code": "110052"
    }
  },
  {
    "id": 6,
    "active": true,
    "name": "string",
    "qualification": [
      "bachelors"
    ],
    "speciality": [
      "Orthology",
      "Dentist"
    ],
    "phone": {
      "country_code": "+91",
      "number": "99991111"
    },
    "department": "IT",
    "organisation": {
      "name": "string",
      "location": "string"
    },
    "address": {
      "street_address": "string",
      "city": "New Delhi",
      "state": "Delhi",
      "country": "India",
      "zip_code": "110052"
    }
  },
  {
    "id": 7,
    "active": true,
    "name": "string",
    "qualification": [
      "bachelors"
    ],
    "speciality": [
      "Orthology",
      "Dentist"
    ],
    "phone": {
      "country_code": "+91",
      "number": "99991111"
    },
    "department": "IT",
    "organisation": {
      "name": "string",
      "location": "string"
    },
    "address": {
      "street_address": "string",
      "city": "New Delhi",
      "state": "Delhi",
      "country": "India",
      "zip_code": "110052"
    }
  },
  {
    "id": 8,
    "active": true,
    "name": "string",
    "qualification": [
      "bachelors"
    ],
    "speciality": [
      "Orthology",
      "Dentist"
    ],
    "phone": {
      "country_code": "+91",
      "number": "99991111"
    },
    "department": "IT",
    "organisation": {
      "name": "string",
      "location": "string"
    },
    "address": {
      "street_address": "string",
      "city": "New Delhi",
      "state": "Delhi",
      "country": "India",
      "zip_code": "110052"
    }
  },
  {
    "id": 9,
    "active": true,
    "name": "string",
    "qualification": [
      "bachelors"
    ],
    "speciality": [
      "Orthology",
      "Dentist"
    ],
    "phone": {
      "country_code": "+91",
      "number": "99991111"
    },
    "department": "IT",
    "organisation": {
      "name": "string",
      "location": "string"
    },
    "address": {
      "street_address": "string",
      "city": "New Delhi",
      "state": "Delhi",
      "country": "India",
      "zip_code": "110052"
    }
  },
  {
    "id": 10,
    "active": true,
    "name": "string",
    "qualification": [
      "bachelors"
    ],
    "speciality": [
      "Orthology",
      "Dentist"
    ],
    "phone": {
      "country_code": "+91",
      "number": "99991111"
    },
    "department": "IT",
    "organisation": {
      "name": "string",
      "location": "string"
    },
    "address": {
      "street_address": "string",
      "city": "New Delhi",
      "state": "Delhi",
      "country": "India",
      "zip_code": "110052"
    }
  },
  {
    "id": 11,
    "active": true,
    "name": "string",
    "qualification": [
      "bachelors"
    ],
    "speciality": [
      "Orthology",
      "Dentist"
    ],
    "phone": {
      "country_code": "+91",
      "number": "99991111"
    },
    "department": "IT",
    "organisation": {
      "name": "string",
      "location": "string"
    },
    "address": {
      "street_address": "string",
      "city": "New Delhi",
      "state": "Delhi",
      "country": "India",
      "zip_code": "110052"
    }
  },
  {
    "id": 12,
    "active": true,
    "name": "string",
    "qualification": [
      "bachelors"
    ],
    "speciality": [
      "Orthology",
      "Dentist"
    ],
    "phone": {
      "country_code": "+91",
      "number": "99991111"
    },
    "department": "IT",
    "organisation": {
      "name": "string",
      "location": "string"
    },
    "address": {
      "street_address": "string",
      "city": "New Delhi",
      "state": "Delhi",
      "country": "India",
      "zip_code": "110052"
    }
  },
  {
    "id": 13,
    "active": true,
    "name": "string",
    "qualification": [
      "bachelors"
    ],
    "speciality": [
      "Orthology",
      "Dentist"
    ],
    "phone": {
      "country_code": "+91",
      "number": "99991111"
    },
    "department": "IT",
    "organisation": {
      "name": "string",
      "location": "string"
    },
    "address": {
      "street_address": "string",
      "city": "New Delhi",
      "state": "Delhi",
      "country": "India",
      "zip_code": "110052"
    }
  },
  {
    "id": 14,
    "active": true,
    "name": "string",
    "qualification": [
      "bachelors"
    ],
    "speciality": [
      "Orthology",
      "Dentist"
    ],
    "phone": {
      "country_code": "+91",
      "number": "99991111"
    },
    "department": "IT",
    "organisation": {
      "name": "string",
      "location": "string"
    },
    "address": {
      "street_address": "string",
      "city": "New Delhi",
      "state": "Delhi",
      "country": "India",
      "zip_code": "110052"
    }
  },
  {
    "id": 15,
    "active": true,
    "name": "string",
    "qualification": [
      "bachelors"
    ],
    "speciality": [
      "Orthology",
      "Dentist"
    ],
    "phone": {
      "country_code": "+91",
      "number": "99991111"
    },
    "department": "IT",
    "organisation": {
      "name": "string",
      "location": "string"
    },
    "address": {
      "street_address": "string",
      "city": "New Delhi",
      "state": "Delhi",
      "country": "India",
      "zip_code": "110052"
    }
  }
]